City_ID,City,Country,Max Temp,Current Description,Lat,Lng,Hotel Name
8,Butaritari,KI,82.6,scattered clouds,3.0707,172.7902,Isles Sunset Lodge
11,Piacabucu,BR,82.71,scattered clouds,-10.4056,-36.4344,Piaçabuçu News
37,Benguela,AO,83.68,clear sky,-12.5763,13.4055,Hotel Praia Morena
38,Muros,ES,82.9,scattered clouds,42.7762,-9.0603,Apartment Av. Castelao
41,Coaraci,BR,80.04,overcast clouds,-14.6408,-39.5511,Pousada Alternativa Coaraci
43,Puerto Ayora,EC,80.56,broken clouds,-0.7393,-90.3518,Finch Bay Galapagos Hotel
46,Aketi,CD,82.63,overcast clouds,2.7388,23.7833,
48,Ishigaki,JP,80.8,overcast clouds,24.3448,124.1572,Hotel Peace Land Ishigakijima
49,Veraval,IN,83.82,broken clouds,20.9,70.3667,Lords Inn Somnath
50,San Patricio,US,84.07,scattered clouds,28.017,-97.5169,"Motel 6 Sinton, TX"
74,Ixtapa,MX,80.22,broken clouds,20.7,-105.2,Hotel Plaza Providencia
87,Bac Lieu,VN,82.96,scattered clouds,9.285,105.7244,Khách sạn Sài Gòn Bạc Liêu
88,Safford,US,83.32,clear sky,32.834,-109.7076,SpringHill Suites by Marriott Thatcher
99,Zhanaozen,KZ,80.58,clear sky,43.3,52.8,K.korabay 28A
103,Hithadhoo,MV,84.07,broken clouds,-0.6,73.0833,Scoop Guest House
109,Socorro,US,83.1,clear sky,31.6546,-106.3033,guarderia imss papalote
122,Bacungan,PH,80.65,scattered clouds,9.9106,118.7022,Sumayang Property
123,Carmen,MX,82.44,scattered clouds,18.6333,-91.8333,Hotel Lossandes
144,Gamba,GA,81.34,broken clouds,-2.65,10.0,
154,Sabang,ID,82.98,overcast clouds,5.8933,95.3214,Hotel Citra
162,Kavaratti,IN,83.77,few clouds,10.5669,72.642,Hotels in Lakshadweep Islands
168,Salalah,OM,84.29,scattered clouds,17.0151,54.0924,HAMDAN PLAZA HOTEL SALALAH
171,Feijo,BR,80.87,overcast clouds,-8.1642,-70.3536,Hotel e Restaurante Aҫai
183,Wanning,CN,83.34,overcast clouds,18.8003,110.3967,Paradise Hotel
194,Hambantota,LK,84.54,few clouds,6.1241,81.1185,Bungalow 63
195,Matara,LK,80.47,overcast clouds,5.9485,80.5353,Amaloh Boutique Resort
197,Male,MV,84.15,broken clouds,4.1748,73.5089,Hotel Octave Maldives
207,Saint George,US,82.87,clear sky,37.1041,-113.5841,Best Western Plus Abbey Inn
216,Inirida,CO,84.11,overcast clouds,3.8653,-67.9239,Fuente del Guania Hotel de Lujo
218,Belmonte,BR,81.1,overcast clouds,-15.8631,-38.8828,Pousada Monte Carmelo O Pão
226,Sumbe,AO,80.44,clear sky,-11.2061,13.8437,Hotel Ritz Sumbe
245,Victoria,HK,84.38,light rain,22.2855,114.1577,Mini Hotel Central
264,Gizo,SB,80.94,light rain,-8.103,156.8419,Imagination Island
275,Takoradi,GH,82.71,overcast clouds,4.8845,-1.7554,Raybow International Hotel
280,Dafeng,CN,80.64,overcast clouds,23.4517,108.5881,Shenglong Hotel
298,Trincomalee,LK,82.51,overcast clouds,8.5711,81.2335,Welcombe Hotel
302,Thinadhoo,MV,84.27,overcast clouds,0.5333,72.9333,
303,Sao Joao Da Barra,BR,82.49,overcast clouds,-21.6403,-41.0511,Pousada Porto De Canoas
305,Port Blair,IN,80.64,mist,11.6667,92.75,"Welcomhotel By ITC Hotels, Bay Island, Port Blair"
314,Sulangan,PH,83.64,overcast clouds,11.1373,123.7228,Maia's Beach Resort
318,Gigmoto,PH,80.89,broken clouds,13.7796,124.39,Cj's Travellers Inn
320,Lorengau,PG,80.26,overcast clouds,-2.0226,147.2712,Lorengau Harbourside Hotel
321,Mangrol,IN,83.46,few clouds,21.1167,70.1167,Hotel The Royal Honours
327,Sarangani,PH,82.36,light rain,5.4033,125.4636,Ballistic Islet
361,Qinzhou,CN,83.71,light rain,21.95,108.6167,Jinjiang Inn Style Qingzhou Walmart
366,Grass Valley,US,82.85,clear sky,39.2191,-121.0611,Holbrooke Hotel
368,Upata,VE,80.19,broken clouds,8.0086,-62.3989,Posada Villa Nela
386,Beyneu,KZ,80.49,clear sky,45.3167,55.2,NUR
390,Qui Nhon,VN,83.1,scattered clouds,13.7667,109.2333,Hoang Yen Canary Hotel
402,Nouakchott,MR,84.13,scattered clouds,18.0858,-15.9785,HOTEL IMAN فندق إيمان
429,Uch,FR,84.69,broken clouds,45.3192,-0.9345,Tour Hôtel
435,Salvador,SV,82.8,scattered clouds,13.8333,-88.9167,Chico's Ranch
460,Progreso,MX,84.31,clear sky,21.2833,-89.6667,Playa Linda Hotel
461,Banda Aceh,ID,80.29,light rain,5.5577,95.3222,Sulthan Hotel International
477,Akyab,MM,83.48,overcast clouds,20.15,92.9,Hotel Memory
478,Cumpas,MX,80.96,clear sky,29.9833,-109.7833,Hotel La Palma
481,Kuching,MY,80.82,few clouds,1.55,110.3333,The Ranee Boutique Suites
500,Tamandare,BR,82.51,scattered clouds,-8.7597,-35.1047,Pousada 100 Passos
508,Denizli,TR,81.45,broken clouds,37.8402,29.0698,Anemon Denizli Hotel
510,Shihezi,CN,80.06,overcast clouds,44.3,86.0333,Home Inn Shihezi Dongwu Road Century Square
517,Tarkwa,GH,82.9,light rain,5.3064,-1.9847,Te Deum Lodge
519,Cayenne,GF,84.24,broken clouds,4.9333,-52.3333,Hôtel Le Dronmi
525,Kudahuvadhoo,MV,83.88,scattered clouds,2.6708,72.8944,Niyama Private Islands Maldives
537,Epe,NG,83.79,light rain,6.5841,3.9834,MAGVILLE HOTEL
548,Ascension,US,83.05,clear sky,30.2169,-90.9001,Highland Inn
549,Barranco,PA,82.35,overcast clouds,9.5167,-82.7,Casa doña Delfina Jiménez
572,Korla,CN,81.64,overcast clouds,41.7597,86.1469,Gulisitan Hotel
590,Basco,PH,84.4,broken clouds,20.4487,121.9702,Nathaniel's Lodge
598,Maceio,BR,80.04,broken clouds,-9.6658,-35.7353,Poutur Pousada
615,Badalona,ES,82.63,clear sky,41.45,2.2474,Rafaelhoteles Badalona
627,Gumdag,TM,81.34,clear sky,39.2061,54.5906,
628,Abha,SA,84.45,clear sky,18.2164,42.5053,Abha Hotel
635,Xuddur,SO,82.65,overcast clouds,4.1213,43.8894,Banjanay Hotel
636,Kodinar,IN,84.09,scattered clouds,20.7903,70.7031,residency of N.B vadhel
639,Eydhafushi,MV,83.41,overcast clouds,5.1033,73.0708,Soneva Fushi
642,Kulhudhuffushi,MV,83.07,overcast clouds,6.6221,73.07,Haajy Guest House 1
647,Houma,US,82.99,clear sky,29.5958,-90.7195,Courtyard by Marriott Houma
668,Manoel Urbano,BR,84.76,broken clouds,-8.8389,-69.2597,Baixada Beira Rio
673,Zhuhai,CN,84.11,moderate rain,22.2769,113.5678,Nanyang Seascape Hotel Zhuhai Hotel
674,Obo,CF,82.24,broken clouds,5.3998,26.4869,
